[
  {
    "name": "Beaumont",
    "postalCode": "T4X 0E4",
    "province": "AB",
    "provinceExpanded": "Alberta",
    "lat": 38.67524,
    "lng": -0.809962,
    "type": "mobile",
    "source": "dynacare-mobile"
  },
  {
    "name": "Calgary",
    "postalCode": "T2Z 2N6",
    "province": "AB",
    "provinceExpanded": "Alberta",
    "lat": 37.605657,
    "lng": -82.324309,
    "type": "mobile",
    "source": "dynacare-mobile"
  },
  {
    "name": "Calgary",
    "postalCode": "T3M 1H9",
    "province": "AB",
    "provinceExpanded": "Alberta",
    "lat": 37.605657,
    "lng": -82.324309,
    "type": "mobile",
    "source": "dynacare-mobile"
  },
  {
    "name": "Calgary",
    "postalCode": "T3N 1K9",
    "province": "AB",
    "provinceExpanded": "Alberta",
    "lat": 37.605657,
    "lng": -82.324309,
    "type": "mobile",
    "source": "dynacare-mobile"
  },
  {
    "name": "Calgary",
    "postalCode": "T3G 4C6",
    "province": "AB",
    "provinceExpanded": "Alberta",
    "lat": 37.605657,
    "lng": -82.324309,
    "type": "mobile",
    "source": "dynacare-mobile"
  },
  {
    "name": "Calgary",
    "postalCode": "T2X 0M8",
    "province": "AB",
    "provinceExpanded": "Alberta",
    "lat": 37.605657,
    "lng": -82.324309,
    "type": "mobile",
    "source": "dynacare-mobile"
  },
  {
    "name": "Cochrane",
    "postalCode": "T4C 1E3",
    "province": "AB",
    "provinceExpanded": "Alberta",
    "lat": 38.67524,
    "lng": -0.809962,
    "type": "mobile",
    "source": "dynacare-mobile"
  },
  {
    "name": "Edmonton",
    "postalCode": "T6W 3C1",
    "province": "AB",
    "provinceExpanded": "Alberta",
    "lat": 37.605657,
    "lng": -82.324309,
    "type": "mobile",
    "source": "dynacare-mobile"
  },
  {
    "name": "Edmonton",
    "postalCode": null,
    "province": "AB",
    "provinceExpanded": "Alberta",
    "lat": 53.546205,
    "lng": -113.491241,
    "type": "mobile",
    "source": "dynacare-mobile"
  },
  {
    "name": "Fort Saskatchewan",
    "postalCode": "T8L 0M9",
    "province": "AB",
    "provinceExpanded": "Alberta",
    "lat": 38.67524,
    "lng": -0.809962,
    "type": "mobile",
    "source": "dynacare-mobile"
  },
  {
    "name": "Lacombe",
    "postalCode": "T4L 1N1",
    "province": "AB",
    "provinceExpanded": "Alberta",
    "lat": 37.605657,
    "lng": -82.324309,
    "type": "mobile",
    "source": "dynacare-mobile"
  },
  {
    "name": "Leslieville",
    "postalCode": "T0M 1H0",
    "province": "AB",
    "provinceExpanded": "Alberta",
    "lat": 52.383949,
    "lng": -114.606541,
    "type": "mobile",
    "source": "dynacare-mobile"
  },
  {
    "name": "Lethbridge",
    "postalCode": "T1H 6M8",
    "province": "AB",
    "provinceExpanded": "Alberta",
    "lat": 37.605657,
    "lng": -82.324309,
    "type": "mobile",
    "source": "dynacare-mobile"
  },
  {
    "name": "Medicine Hat",
    "postalCode": "T1C 0A6",
    "province": "AB",
    "provinceExpanded": "Alberta",
    "lat": 37.605657,
    "lng": -82.324309,
    "type": "mobile",
    "source": "dynacare-mobile"
  },
  {
    "name": "Onoway",
    "postalCode": "T0E 1V0",
    "province": "AB",
    "provinceExpanded": "Alberta",
    "lat": 53.726228,
    "lng": -114.148919,
    "type": "mobile",
    "source": "dynacare-mobile"
  },
  {
    "name": "Red Deer",
    "postalCode": "T4P 0G2",
    "province": "AB",
    "provinceExpanded": "Alberta",
    "lat": 37.605657,
    "lng": -82.324309,
    "type": "mobile",
    "source": "dynacare-mobile"
  },
  {
    "name": "Sherwood Park",
    "postalCode": "T8A 1X2",
    "province": "AB",
    "provinceExpanded": "Alberta",
    "lat": 37.605657,
    "lng": -82.324309,
    "type": "mobile",
    "source": "dynacare-mobile"
  },
  {
    "name": "Sturgeon County",
    "postalCode": "T8R 0G8",
    "province": "AB",
    "provinceExpanded": "Alberta",
    "lat": 37.605657,
    "lng": -82.324309,
    "type": "mobile",
    "source": "dynacare-mobile"
  },
  {
    "name": "Sturgeon County",
    "postalCode": "T8R 2B5",
    "province": "AB",
    "provinceExpanded": "Alberta",
    "lat": 37.605657,
    "lng": -82.324309,
    "type": "mobile",
    "source": "dynacare-mobile"
  },
  {
    "name": "Grande Prairie",
    "postalCode": null,
    "province": "AB",
    "provinceExpanded": "Alberta",
    "lat": 55.17108,
    "lng": -118.794987,
    "type": "mobile",
    "source": "dynacare-mobile"
  },
  {
    "name": "Peace River",
    "postalCode": null,
    "province": "AB",
    "provinceExpanded": "Alberta",
    "lat": 56.233711,
    "lng": -117.291084,
    "type": "mobile",
    "source": "dynacare-mobile"
  },
  {
    "name": "Abbotsford",
    "postalCode": "V2T 1Z1",
    "province": "BC",
    "provinceExpanded": "British Columbia",
    "lat": 49.050126,
    "lng": -122.348565,
    "type": "mobile",
    "source": "dynacare-mobile"
  },
  {
    "name": "Chilliwack",
    "postalCode": "V2R 2B5",
    "province": "BC",
    "provinceExpanded": "British Columbia",
    "lat": 37.605657,
    "lng": -82.324309,
    "type": "mobile",
    "source": "dynacare-mobile"
  },
  {
    "name": "Chilliwack",
    "postalCode": "V2R 0R1",
    "province": "BC",
    "provinceExpanded": "British Columbia",
    "lat": 37.605657,
    "lng": -82.324309,
    "type": "mobile",
    "source": "dynacare-mobile"
  },
  {
    "name": "Cobble Hill",
    "postalCode": "V8H 0A1",
    "province": "BC",
    "provinceExpanded": "British Columbia",
    "lat": 37.605657,
    "lng": -82.324309,
    "type": "mobile",
    "source": "dynacare-mobile"
  },
  {
    "name": "Coquitlam",
    "postalCode": "V3B 0E8",
    "province": "BC",
    "provinceExpanded": "British Columbia",
    "lat": 38.67524,
    "lng": -0.809962,
    "type": "mobile",
    "source": "dynacare-mobile"
  },
  {
    "name": "Coquitlam",
    "postalCode": "V3B 2W7",
    "province": "BC",
    "provinceExpanded": "British Columbia",
    "lat": 37.605657,
    "lng": -82.324309,
    "type": "mobile",
    "source": "dynacare-mobile"
  },
  {
    "name": "Courtenay",
    "postalCode": "V9N 5W8",
    "province": "BC",
    "provinceExpanded": "British Columbia",
    "lat": 37.605657,
    "lng": -82.324309,
    "type": "mobile",
    "source": "dynacare-mobile"
  },
  {
    "name": "Cranbrook",
    "postalCode": "V1C 7B2",
    "province": "BC",
    "provinceExpanded": "British Columbia",
    "lat": 37.605657,
    "lng": -82.324309,
    "type": "mobile",
    "source": "dynacare-mobile"
  },
  {
    "name": "Kamloops",
    "postalCode": "V2H 1L1",
    "province": "BC",
    "provinceExpanded": "British Columbia",
    "lat": 50.79308,
    "lng": -120.317947,
    "type": "mobile",
    "source": "dynacare-mobile"
  },
  {
    "name": "Kamloops",
    "postalCode": "V2C 0H7",
    "province": "BC",
    "provinceExpanded": "British Columbia",
    "lat": 37.605657,
    "lng": -82.324309,
    "type": "mobile",
    "source": "dynacare-mobile"
  },
  {
    "name": "Langford",
    "postalCode": "V9B 6R6",
    "province": "BC",
    "provinceExpanded": "British Columbia",
    "lat": 37.605657,
    "lng": -82.324309,
    "type": "mobile",
    "source": "dynacare-mobile"
  },
  {
    "name": "Langley",
    "postalCode": "V2Y 4J1",
    "province": "BC",
    "provinceExpanded": "British Columbia",
    "lat": 37.605657,
    "lng": -82.324309,
    "type": "mobile",
    "source": "dynacare-mobile"
  },
  {
    "name": "Nanaimo",
    "postalCode": "V9R 6N3",
    "province": "BC",
    "provinceExpanded": "British Columbia",
    "lat": 37.605657,
    "lng": -82.324309,
    "type": "mobile",
    "source": "dynacare-mobile"
  },
  {
    "name": "Nanoose Bay",
    "postalCode": "V9P 9B7",
    "province": "BC",
    "provinceExpanded": "British Columbia",
    "lat": 49.30635,
    "lng": -124.238098,
    "type": "mobile",
    "source": "dynacare-mobile"
  },
  {
    "name": "Nelson",
    "postalCode": "V0G 2J0",
    "province": "BC",
    "provinceExpanded": "British Columbia",
    "lat": 49.610861,
    "lng": -117.5627,
    "type": "mobile",
    "source": "dynacare-mobile"
  },
  {
    "name": "North Pine",
    "postalCode": "V0C 2A0",
    "province": "BC",
    "provinceExpanded": "British Columbia",
    "lat": 37.605657,
    "lng": -82.324309,
    "type": "mobile",
    "source": "dynacare-mobile"
  },
  {
    "name": "North Vancouver",
    "postalCode": "V7G 1S1",
    "province": "BC",
    "provinceExpanded": "British Columbia",
    "lat": 37.605657,
    "lng": -82.324309,
    "type": "mobile",
    "source": "dynacare-mobile"
  },
  {
    "name": "Pemberton",
    "postalCode": "V0N 2L1",
    "province": "BC",
    "provinceExpanded": "British Columbia",
    "lat": 50.318821,
    "lng": -122.803234,
    "type": "mobile",
    "source": "dynacare-mobile"
  },
  {
    "name": "Penticton",
    "postalCode": "V2A 3R3",
    "province": "BC",
    "provinceExpanded": "British Columbia",
    "lat": 37.605657,
    "lng": -82.324309,
    "type": "mobile",
    "source": "dynacare-mobile"
  },
  {
    "name": "Prince George",
    "postalCode": "V2L 4Y4",
    "province": "BC",
    "provinceExpanded": "British Columbia",
    "lat": 38.67524,
    "lng": -0.809962,
    "type": "mobile",
    "source": "dynacare-mobile"
  },
  {
    "name": "Sooke",
    "postalCode": "V9Z 0Y3",
    "province": "BC",
    "provinceExpanded": "British Columbia",
    "lat": 48.384299,
    "lng": -123.70641,
    "type": "mobile",
    "source": "dynacare-mobile"
  },
  {
    "name": "Summerland",
    "postalCode": "V0H 1Z1",
    "province": "BC",
    "provinceExpanded": "British Columbia",
    "lat": 37.605657,
    "lng": -82.324309,
    "type": "mobile",
    "source": "dynacare-mobile"
  },
  {
    "name": "Surrey",
    "postalCode": "V3T 1Z2",
    "province": "BC",
    "provinceExpanded": "British Columbia",
    "lat": 37.605657,
    "lng": -82.324309,
    "type": "mobile",
    "source": "dynacare-mobile"
  },
  {
    "name": "Surrey",
    "postalCode": "V3R 4J4",
    "province": "BC",
    "provinceExpanded": "British Columbia",
    "lat": 37.605657,
    "lng": -82.324309,
    "type": "mobile",
    "source": "dynacare-mobile"
  },
  {
    "name": "Surrey",
    "postalCode": "V3S 1Y6",
    "province": "BC",
    "provinceExpanded": "British Columbia",
    "lat": 37.605657,
    "lng": -82.324309,
    "type": "mobile",
    "source": "dynacare-mobile"
  },
  {
    "name": "Surrey",
    "postalCode": "V4N 5Z8",
    "province": "BC",
    "provinceExpanded": "British Columbia",
    "lat": 37.605657,
    "lng": -82.324309,
    "type": "mobile",
    "source": "dynacare-mobile"
  },
  {
    "name": "Surrey",
    "postalCode": "V3S 8Y7",
    "province": "BC",
    "provinceExpanded": "British Columbia",
    "lat": 37.605657,
    "lng": -82.324309,
    "type": "mobile",
    "source": "dynacare-mobile"
  },
  {
    "name": "Vancouver",
    "postalCode": "V2N 1L3",
    "province": "BC",
    "provinceExpanded": "British Columbia",
    "lat": 38.67524,
    "lng": -0.809962,
    "type": "mobile",
    "source": "dynacare-mobile"
  },
  {
    "name": "Vancouver",
    "postalCode": "V6H 3P4",
    "province": "BC",
    "provinceExpanded": "British Columbia",
    "lat": 38.67524,
    "lng": -0.809962,
    "type": "mobile",
    "source": "dynacare-mobile"
  },
  {
    "name": "Vernon",
    "postalCode": "V1T 9A1",
    "province": "BC",
    "provinceExpanded": "British Columbia",
    "lat": 37.605657,
    "lng": -82.324309,
    "type": "mobile",
    "source": "dynacare-mobile"
  },
  {
    "name": "Victoria",
    "postalCode": "V9C 3E9",
    "province": "BC",
    "provinceExpanded": "British Columbia",
    "lat": 38.67524,
    "lng": -0.809962,
    "type": "mobile",
    "source": "dynacare-mobile"
  },
  {
    "name": "Kelowna",
    "postalCode": null,
    "province": "BC",
    "provinceExpanded": "British Columbia",
    "lat": 49.887918,
    "lng": -119.495902,
    "type": "mobile",
    "source": "dynacare-mobile"
  },
  {
    "name": "Cartier",
    "postalCode": null,
    "province": "MB",
    "provinceExpanded": "Manitoba",
    "lat": 49.926697,
    "lng": -97.727869,
    "type": "mobile",
    "source": "dynacare-mobile"
  },
  {
    "name": "East St. Paul",
    "postalCode": null,
    "province": "MB",
    "provinceExpanded": "Manitoba",
    "lat": 49.979488,
    "lng": -97.014771,
    "type": "mobile",
    "source": "dynacare-mobile"
  },
  {
    "name": "Lorette",
    "postalCode": null,
    "province": "MB",
    "provinceExpanded": "Manitoba",
    "lat": 49.739359,
    "lng": -96.874248,
    "type": "mobile",
    "source": "dynacare-mobile"
  },
  {
    "name": "Rosenort",
    "postalCode": null,
    "province": "MB",
    "provinceExpanded": "Manitoba",
    "lat": 49.459661,
    "lng": -97.435964,
    "type": "mobile",
    "source": "dynacare-mobile"
  },
  {
    "name": "Steinbach",
    "postalCode": null,
    "province": "MB",
    "provinceExpanded": "Manitoba",
    "lat": 49.525441,
    "lng": -96.685428,
    "type": "mobile",
    "source": "dynacare-mobile"
  },
  {
    "name": "Tuelon",
    "postalCode": null,
    "province": "MB",
    "provinceExpanded": "Manitoba",
    "lat": 50.380738,
    "lng": -97.262756,
    "type": "mobile",
    "source": "dynacare-mobile"
  },
  {
    "name": "Winnipeg",
    "postalCode": null,
    "province": "MB",
    "provinceExpanded": "Manitoba",
    "lat": 49.895537,
    "lng": -97.138458,
    "type": "mobile",
    "source": "dynacare-mobile"
  },
  {
    "name": "Bathurst",
    "postalCode": null,
    "province": "NB",
    "provinceExpanded": "New Brunswick",
    "lat": 47.620867,
    "lng": -65.653755,
    "type": "mobile",
    "source": "dynacare-mobile"
  },
  {
    "name": "Campbellton",
    "postalCode": null,
    "province": "NB",
    "provinceExpanded": "New Brunswick",
    "lat": 48.004663,
    "lng": -66.676599,
    "type": "mobile",
    "source": "dynacare-mobile"
  },
  {
    "name": "Fredericton",
    "postalCode": null,
    "province": "NB",
    "provinceExpanded": "New Brunswick",
    "lat": 45.948828,
    "lng": -66.629183,
    "type": "mobile",
    "source": "dynacare-mobile"
  },
  {
    "name": "Grand Bay-Westfield",
    "postalCode": null,
    "province": "NB",
    "provinceExpanded": "New Brunswick",
    "lat": 45.322195,
    "lng": -66.202517,
    "type": "mobile",
    "source": "dynacare-mobile"
  },
  {
    "name": "Moncton",
    "postalCode": null,
    "province": "NB",
    "provinceExpanded": "New Brunswick",
    "lat": 46.098568,
    "lng": -64.800427,
    "type": "mobile",
    "source": "dynacare-mobile"
  },
  {
    "name": "Picadilly",
    "postalCode": null,
    "province": "NB",
    "provinceExpanded": "New Brunswick",
    "lat": 45.728034,
    "lng": -65.386874,
    "type": "mobile",
    "source": "dynacare-mobile"
  },
  {
    "name": "Upper Knoxford",
    "postalCode": null,
    "province": "NB",
    "provinceExpanded": "New Brunswick",
    "lat": 46.537063,
    "lng": -67.755458,
    "type": "mobile",
    "source": "dynacare-mobile"
  },
  {
    "name": "St. John's",
    "postalCode": null,
    "province": "NL",
    "provinceExpanded": "Newfoundland and Labrador",
    "lat": 47.564679,
    "lng": -52.706696,
    "type": "mobile",
    "source": "dynacare-mobile"
  },
  {
    "name": "Corner Brook",
    "postalCode": null,
    "province": "NL",
    "provinceExpanded": "Newfoundland and Labrador",
    "lat": 48.95317,
    "lng": -57.947388,
    "type": "mobile",
    "source": "dynacare-mobile"
  },
  {
    "name": "Grand Falls-Windsor",
    "postalCode": null,
    "province": "NL",
    "provinceExpanded": "Newfoundland and Labrador",
    "lat": 48.944151,
    "lng": -55.652618,
    "type": "mobile",
    "source": "dynacare-mobile"
  },
  {
    "name": "Lethbridge",
    "postalCode": null,
    "province": "NL",
    "provinceExpanded": "Newfoundland and Labrador",
    "lat": 48.369312,
    "lng": -53.856544,
    "type": "mobile",
    "source": "dynacare-mobile"
  },
  {
    "name": "Antigonish",
    "postalCode": null,
    "province": "NS",
    "provinceExpanded": "Nova Scotia",
    "lat": 45.621361,
    "lng": -61.990493,
    "type": "mobile",
    "source": "dynacare-mobile"
  },
  {
    "name": "Darling Lake",
    "postalCode": null,
    "province": "NS",
    "provinceExpanded": "Nova Scotia",
    "lat": 44.716316,
    "lng": -64.453459,
    "type": "mobile",
    "source": "dynacare-mobile"
  },
  {
    "name": "Dartmouth",
    "postalCode": null,
    "province": "NS",
    "provinceExpanded": "Nova Scotia",
    "lat": 44.679971,
    "lng": -63.572023,
    "type": "mobile",
    "source": "dynacare-mobile"
  },
  {
    "name": "Elmsdale",
    "postalCode": null,
    "province": "NS",
    "provinceExpanded": "Nova Scotia",
    "lat": 44.967179,
    "lng": -63.504811,
    "type": "mobile",
    "source": "dynacare-mobile"
  },
  {
    "name": "Herring Cove",
    "postalCode": null,
    "province": "NS",
    "provinceExpanded": "Nova Scotia",
    "lat": 44.571283,
    "lng": -63.558271,
    "type": "mobile",
    "source": "dynacare-mobile"
  },
  {
    "name": "Kingston",
    "postalCode": null,
    "province": "NS",
    "provinceExpanded": "Nova Scotia",
    "lat": 44.987085,
    "lng": -64.949963,
    "type": "mobile",
    "source": "dynacare-mobile"
  },
  {
    "name": "Shag Harbour",
    "postalCode": null,
    "province": "NS",
    "provinceExpanded": "Nova Scotia",
    "lat": 43.493911,
    "lng": -65.717993,
    "type": "mobile",
    "source": "dynacare-mobile"
  },
  {
    "name": "AJAX",
    "postalCode": "L1Z 1R4",
    "province": "ON",
    "provinceExpanded": "Ontario",
    "lat": 37.605657,
    "lng": -82.324309,
    "type": "mobile",
    "source": "dynacare-mobile"
  },
  {
    "name": "ALEXANDRIA",
    "postalCode": "K0C 1A0",
    "province": "ON",
    "provinceExpanded": "Ontario",
    "lat": 45.31289,
    "lng": -74.638469,
    "type": "mobile",
    "source": "dynacare-mobile"
  },
  {
    "name": "AMHERSTVIEW",
    "postalCode": "K7N 2A3",
    "province": "ON",
    "provinceExpanded": "Ontario",
    "lat": 37.605657,
    "lng": -82.324309,
    "type": "mobile",
    "source": "dynacare-mobile"
  },
  {
    "name": "Barrie",
    "postalCode": "L4M 3N4",
    "province": "ON",
    "provinceExpanded": "Ontario",
    "lat": 38.67524,
    "lng": -0.809962,
    "type": "mobile",
    "source": "dynacare-mobile"
  },
  {
    "name": "Brampton",
    "postalCode": "L6R 1R9",
    "province": "ON",
    "provinceExpanded": "Ontario",
    "lat": 37.605657,
    "lng": -82.324309,
    "type": "mobile",
    "source": "dynacare-mobile"
  },
  {
    "name": "Brampton",
    "postalCode": "L7A 4T5",
    "province": "ON",
    "provinceExpanded": "Ontario",
    "lat": 37.605657,
    "lng": -82.324309,
    "type": "mobile",
    "source": "dynacare-mobile"
  },
  {
    "name": "Brampton",
    "postalCode": "L6S 3Z7",
    "province": "ON",
    "provinceExpanded": "Ontario",
    "lat": 37.605657,
    "lng": -82.324309,
    "type": "mobile",
    "source": "dynacare-mobile"
  },
  {
    "name": "Brockville",
    "postalCode": "K6V 5T1",
    "province": "ON",
    "provinceExpanded": "Ontario",
    "lat": 44.609802,
    "lng": -75.67471,
    "type": "mobile",
    "source": "dynacare-mobile"
  },
  {
    "name": "Cambridge",
    "postalCode": "N3H 2H9",
    "province": "ON",
    "provinceExpanded": "Ontario",
    "lat": 37.605657,
    "lng": -82.324309,
    "type": "mobile",
    "source": "dynacare-mobile"
  },
  {
    "name": "Crediton",
    "postalCode": "N0M 1M0",
    "province": "ON",
    "provinceExpanded": "Ontario",
    "lat": 43.300308,
    "lng": -81.538203,
    "type": "mobile",
    "source": "dynacare-mobile"
  },
  {
    "name": "Dundas",
    "postalCode": "L9H 5M3",
    "province": "ON",
    "provinceExpanded": "Ontario",
    "lat": 43.262038,
    "lng": -79.956493,
    "type": "mobile",
    "source": "dynacare-mobile"
  },
  {
    "name": "Goderich",
    "postalCode": "N7A 1L3",
    "province": "ON",
    "provinceExpanded": "Ontario",
    "lat": 38.67524,
    "lng": -0.809962,
    "type": "mobile",
    "source": "dynacare-mobile"
  },
  {
    "name": "Guelph",
    "postalCode": "N1L 0H5",
    "province": "ON",
    "provinceExpanded": "Ontario",
    "lat": 43.530267,
    "lng": -80.195662,
    "type": "mobile",
    "source": "dynacare-mobile"
  },
  {
    "name": "Hamilton",
    "postalCode": "L8M 1H5",
    "province": "ON",
    "provinceExpanded": "Ontario",
    "lat": 37.605657,
    "lng": -82.324309,
    "type": "mobile",
    "source": "dynacare-mobile"
  },
  {
    "name": "Harrow",
    "postalCode": "N0R 1G0",
    "province": "ON",
    "provinceExpanded": "Ontario",
    "lat": 42.043099,
    "lng": -82.95036,
    "type": "mobile",
    "source": "dynacare-mobile"
  },
  {
    "name": "Havelock",
    "postalCode": "K0L 1Z0",
    "province": "ON",
    "provinceExpanded": "Ontario",
    "lat": 44.443772,
    "lng": -77.866737,
    "type": "mobile",
    "source": "dynacare-mobile"
  },
  {
    "name": "Kitchener",
    "postalCode": "N2A 4C3",
    "province": "ON",
    "provinceExpanded": "Ontario",
    "lat": 38.67524,
    "lng": -0.809962,
    "type": "mobile",
    "source": "dynacare-mobile"
  },
  {
    "name": "Lasalle",
    "postalCode": "N9H 1Z7",
    "province": "ON",
    "provinceExpanded": "Ontario",
    "lat": 37.605657,
    "lng": -82.324309,
    "type": "mobile",
    "source": "dynacare-mobile"
  },
  {
    "name": "London",
    "postalCode": "N6G 2W4",
    "province": "ON",
    "provinceExpanded": "Ontario",
    "lat": 37.605657,
    "lng": -82.324309,
    "type": "mobile",
    "source": "dynacare-mobile"
  },
  {
    "name": "Milton",
    "postalCode": "L9T 6Y4",
    "province": "ON",
    "provinceExpanded": "Ontario",
    "lat": 38.67524,
    "lng": -0.809962,
    "type": "mobile",
    "source": "dynacare-mobile"
  },
  {
    "name": "Mississauga",
    "postalCode": "L5N 6R5",
    "province": "ON",
    "provinceExpanded": "Ontario",
    "lat": 38.67524,
    "lng": -0.809962,
    "type": "mobile",
    "source": "dynacare-mobile"
  },
  {
    "name": "Mississauga",
    "postalCode": "L5A 1Y7",
    "province": "ON",
    "provinceExpanded": "Ontario",
    "lat": 38.67524,
    "lng": -0.809962,
    "type": "mobile",
    "source": "dynacare-mobile"
  },
  {
    "name": "Mississauga",
    "postalCode": "L5A 3L8",
    "province": "ON",
    "provinceExpanded": "Ontario",
    "lat": 38.67524,
    "lng": -0.809962,
    "type": "mobile",
    "source": "dynacare-mobile"
  },
  {
    "name": "Mississauga",
    "postalCode": "L5R 3H1",
    "province": "ON",
    "provinceExpanded": "Ontario",
    "lat": 38.67524,
    "lng": -0.809962,
    "type": "mobile",
    "source": "dynacare-mobile"
  },
  {
    "name": "Nepean",
    "postalCode": "K2J 4Y2",
    "province": "ON",
    "provinceExpanded": "Ontario",
    "lat": 37.605657,
    "lng": -82.324309,
    "type": "mobile",
    "source": "dynacare-mobile"
  },
  {
    "name": "Niagara Falls ( St. Davids)",
    "postalCode": "L2J 4J7",
    "province": "ON",
    "provinceExpanded": "Ontario",
    "lat": 38.67524,
    "lng": -0.809962,
    "type": "mobile",
    "source": "dynacare-mobile"
  },
  {
    "name": "North York",
    "postalCode": "M9L 2H8",
    "province": "ON",
    "provinceExpanded": "Ontario",
    "lat": 38.67524,
    "lng": -0.809962,
    "type": "mobile",
    "source": "dynacare-mobile"
  },
  {
    "name": "Orleans",
    "postalCode": "K4A 0M4",
    "province": "ON",
    "provinceExpanded": "Ontario",
    "lat": 38.67524,
    "lng": -0.809962,
    "type": "mobile",
    "source": "dynacare-mobile"
  },
  {
    "name": "Oshawa",
    "postalCode": "L1K 0E8",
    "province": "ON",
    "provinceExpanded": "Ontario",
    "lat": 38.67524,
    "lng": -0.809962,
    "type": "mobile",
    "source": "dynacare-mobile"
  },
  {
    "name": "Ottawa",
    "postalCode": "K0A 2Z0",
    "province": "ON",
    "provinceExpanded": "Ontario",
    "lat": 45.189612,
    "lng": -75.832005,
    "type": "mobile",
    "source": "dynacare-mobile"
  },
  {
    "name": "Owen Sound",
    "postalCode": "N4K 2B7",
    "province": "ON",
    "provinceExpanded": "Ontario",
    "lat": 37.605657,
    "lng": -82.324309,
    "type": "mobile",
    "source": "dynacare-mobile"
  },
  {
    "name": "Parry Sound",
    "postalCode": "P2A 1V4",
    "province": "ON",
    "provinceExpanded": "Ontario",
    "lat": 37.605657,
    "lng": -82.324309,
    "type": "mobile",
    "source": "dynacare-mobile"
  },
  {
    "name": "Petawawa",
    "postalCode": "K8H 1Z1",
    "province": "ON",
    "provinceExpanded": "Ontario",
    "lat": 37.605657,
    "lng": -82.324309,
    "type": "mobile",
    "source": "dynacare-mobile"
  },
  {
    "name": "Phelpston",
    "postalCode": "L0L 2K0",
    "province": "ON",
    "provinceExpanded": "Ontario",
    "lat": 44.521728,
    "lng": -79.824945,
    "type": "mobile",
    "source": "dynacare-mobile"
  },
  {
    "name": "Richmond Hill",
    "postalCode": "L4E 5B1",
    "province": "ON",
    "provinceExpanded": "Ontario",
    "lat": 37.605657,
    "lng": -82.324309,
    "type": "mobile",
    "source": "dynacare-mobile"
  },
  {
    "name": "SAULT STE. MARIE",
    "postalCode": "P6B 2G6",
    "province": "ON",
    "provinceExpanded": "Ontario",
    "lat": 37.605657,
    "lng": -82.324309,
    "type": "mobile",
    "source": "dynacare-mobile"
  },
  {
    "name": "SAULT STE. MARIE",
    "postalCode": "P6C 5L8",
    "province": "ON",
    "provinceExpanded": "Ontario",
    "lat": 38.67524,
    "lng": -0.809962,
    "type": "mobile",
    "source": "dynacare-mobile"
  },
  {
    "name": "Scarborough",
    "postalCode": "M1L 0H3",
    "province": "ON",
    "provinceExpanded": "Ontario",
    "lat": 38.67524,
    "lng": -0.809962,
    "type": "mobile",
    "source": "dynacare-mobile"
  },
  {
    "name": "St. Thomas",
    "postalCode": "N5P 3T1",
    "province": "ON",
    "provinceExpanded": "Ontario",
    "lat": 42.836443,
    "lng": -81.20944,
    "type": "mobile",
    "source": "dynacare-mobile"
  },
  {
    "name": "Stoney Creek",
    "postalCode": "L8E 0E4",
    "province": "ON",
    "provinceExpanded": "Ontario",
    "lat": 38.67524,
    "lng": -0.809962,
    "type": "mobile",
    "source": "dynacare-mobile"
  },
  {
    "name": "Toronto",
    "postalCode": "M3N 2Z1",
    "province": "ON",
    "provinceExpanded": "Ontario",
    "lat": 37.605657,
    "lng": -82.324309,
    "type": "mobile",
    "source": "dynacare-mobile"
  },
  {
    "name": "Toronto",
    "postalCode": "M5N 2N2",
    "province": "ON",
    "provinceExpanded": "Ontario",
    "lat": 37.605657,
    "lng": -82.324309,
    "type": "mobile",
    "source": "dynacare-mobile"
  },
  {
    "name": "Toronto",
    "postalCode": "M9R 3G8",
    "province": "ON",
    "provinceExpanded": "Ontario",
    "lat": 37.605657,
    "lng": -82.324309,
    "type": "mobile",
    "source": "dynacare-mobile"
  },
  {
    "name": "Toronto",
    "postalCode": "M6P 3N4",
    "province": "ON",
    "provinceExpanded": "Ontario",
    "lat": 43.661603,
    "lng": -79.448736,
    "type": "mobile",
    "source": "dynacare-mobile"
  },
  {
    "name": "Val Caron",
    "postalCode": "P3N 1A2",
    "province": "ON",
    "provinceExpanded": "Ontario",
    "lat": 37.605657,
    "lng": -82.324309,
    "type": "mobile",
    "source": "dynacare-mobile"
  },
  {
    "name": "Williamstown",
    "postalCode": "K0C 2J0",
    "province": "ON",
    "provinceExpanded": "Ontario",
    "lat": 45.16762,
    "lng": -74.580672,
    "type": "mobile",
    "source": "dynacare-mobile"
  },
  {
    "name": "Thunder Bay",
    "postalCode": null,
    "province": "ON",
    "provinceExpanded": "Ontario",
    "lat": 48.406414,
    "lng": -89.259796,
    "type": "mobile",
    "source": "dynacare-mobile"
  },
  {
    "name": "Niagara Falls",
    "postalCode": null,
    "province": "ON",
    "provinceExpanded": "Ontario",
    "lat": 43.10656,
    "lng": -79.063904,
    "type": "mobile",
    "source": "dynacare-mobile"
  },
  {
    "name": "Sudbury",
    "postalCode": null,
    "province": "ON",
    "provinceExpanded": "Ontario",
    "lat": 46.49272,
    "lng": -80.991211,
    "type": "mobile",
    "source": "dynacare-mobile"
  },
  {
    "name": "Souris",
    "postalCode": null,
    "province": "PE",
    "provinceExpanded": "Prince Edward Island",
    "lat": 46.356529,
    "lng": -62.250428,
    "type": "mobile",
    "source": "dynacare-mobile"
  },
  {
    "name": "Summerside",
    "postalCode": null,
    "province": "PE",
    "provinceExpanded": "Prince Edward Island",
    "lat": 46.394259,
    "lng": -63.789239,
    "type": "mobile",
    "source": "dynacare-mobile"
  },
  {
    "name": "Stratford",
    "postalCode": null,
    "province": "PE",
    "provinceExpanded": "Prince Edward Island",
    "lat": 46.217109,
    "lng": -63.089253,
    "type": "mobile",
    "source": "dynacare-mobile"
  },
  {
    "name": "Maidstone",
    "postalCode": "S0M 1M0",
    "province": "SK",
    "provinceExpanded": "Saskatchewan",
    "lat": 53.085337,
    "lng": -109.289629,
    "type": "mobile",
    "source": "dynacare-mobile"
  },
  {
    "name": "North Battleford",
    "postalCode": "S9A 2E9",
    "province": "SK",
    "provinceExpanded": "Saskatchewan",
    "lat": 38.67524,
    "lng": -0.809962,
    "type": "mobile",
    "source": "dynacare-mobile"
  },
  {
    "name": "Prince Albert",
    "postalCode": "S6V 5R2",
    "province": "SK",
    "provinceExpanded": "Saskatchewan",
    "lat": 37.605657,
    "lng": -82.324309,
    "type": "mobile",
    "source": "dynacare-mobile"
  },
  {
    "name": "Regina",
    "postalCode": "S4W 0B2",
    "province": "SK",
    "provinceExpanded": "Saskatchewan",
    "lat": 37.605657,
    "lng": -82.324309,
    "type": "mobile",
    "source": "dynacare-mobile"
  },
  {
    "name": "Regina",
    "postalCode": "S4S 6Y8",
    "province": "SK",
    "provinceExpanded": "Saskatchewan",
    "lat": 37.605657,
    "lng": -82.324309,
    "type": "mobile",
    "source": "dynacare-mobile"
  },
  {
    "name": "Regina",
    "postalCode": "S4T 0R2",
    "province": "SK",
    "provinceExpanded": "Saskatchewan",
    "lat": 37.605657,
    "lng": -82.324309,
    "type": "mobile",
    "source": "dynacare-mobile"
  },
  {
    "name": "Regina",
    "postalCode": "S4N 4B5",
    "province": "SK",
    "provinceExpanded": "Saskatchewan",
    "lat": 37.605657,
    "lng": -82.324309,
    "type": "mobile",
    "source": "dynacare-mobile"
  },
  {
    "name": "Saskatoon",
    "postalCode": "S7W 1A8",
    "province": "SK",
    "provinceExpanded": "Saskatchewan",
    "lat": 52.14185,
    "lng": -106.55962,
    "type": "mobile",
    "source": "dynacare-mobile"
  },
  {
    "name": "Swift Current",
    "postalCode": "S9H 4S2",
    "province": "SK",
    "provinceExpanded": "Saskatchewan",
    "lat": 37.605657,
    "lng": -82.324309,
    "type": "mobile",
    "source": "dynacare-mobile"
  },
  {
    "name": "Weyburn",
    "postalCode": "S4H 1S4",
    "province": "SK",
    "provinceExpanded": "Saskatchewan",
    "lat": 37.605657,
    "lng": -82.324309,
    "type": "mobile",
    "source": "dynacare-mobile"
  },
  {
    "name": "Maidstone",
    "postalCode": null,
    "province": "SK",
    "provinceExpanded": "Saskatchewan",
    "lat": 53.086227,
    "lng": -109.296096,
    "type": "mobile",
    "source": "dynacare-mobile"
  }
]
